{
  "theaters": {
    "theater": [
      {
        "name": "CGV Sense City",
        "description": "Located in 3rd Floor, Sense City. Watch the latest movies in the best cinema. We hope you will have a goof time with us.",
        "photo_name": "cine01",
        "rating": "5",
        "address": "1 Hòa Bình, Cần Thơ, Việt Nam",
        "phone": "847103819111",
        "website": "https://www.cgv.vn",
        "open_time": "8:00",
        "close_time": "23:30",
        "region": "Cần Thơ",
        "long": "105.7860631",
        "lat": "10.034043",
        "ticket_price": "55000"
      },
      {
        "name": "Lotte Cinema Can Tho",
        "description": "Located in the 1st floor, Big C Cần Thơ. We can easily be found in one of the biggest shopping mall in Can Tho. Enjoy your movies in our top notch theater",
        "photo_name": "cine02",
        "rating": "5",
        "address": "Phường Hưng Phú, Q Cái Răng, TP Cần Thơ, Việt Nam",
        "phone": "847103917172",
        "website": "http://lottecinemavn.com/vi-vn/rap-phim/can-tho/can-tho.aspx",
        "open_time": "8:00",
        "close_time": "23:00",
        "region": "Cần Thơ",
        "long": "105.7846811",
        "lat": "10.0142089",
        "ticket_price": "45000"
      },
      {
        "name": "Cần Thơ Museum",
        "description": "Grand Reopening since 2000! Tickets now cost only 2000VND each.Relive historical moments in one of the oldest museums in Can Tho",
        "photo_name": "museum01",
        "rating": "3",
        "address": "1 Ðại lộ Hòa Bình, phường Tân An, quận Ninh Kiều, TP Cần Thơ, Việt Nam",
        "phone": "847103820955",
        "website": "http://baotanglichsu.vn/portal/vi/Tin-tuc/Nhung-nguoi-ban-bao-tang/2014/06/3A9240A9/",
        "open_time": "8:00",
        "close_time": "17:00",
        "region": "Cần Thơ",
        "long": "105.7867547",
        "lat": "10.0345163",
        "ticket_price": "2000"
      },
      {
        "name": "CGV CT Plaza",
        "description": "Located in the 10th floor, CT Plaza. CGV is a famous name in the business. You will not be disappointed with our quality.",
        "photo_name": "cine03",
        "rating": "4",
        "address": "Phường 2, CT Plaza, 60A Trường Sơn, Thành phố Hồ Chí Minh, Việt Nam",
        "phone": "84862971981",
        "website": "https://www.cgv.vn",
        "open_time": "8:00",
        "close_time": "23:30",
        "region": "Hồ Chí Minh",
        "long": "105.7860631",
        "lat": "10.034043",
        "ticket_price": "75000"
      },
      {
        "name": "CGV Pandora City",
        "description": "Located in the 3rd floor, Pandora City. CGV is a famous name in the business. You will not be disappointed with our quality.",
        "photo_name": "cine04",
        "rating": "5",
        "address": "1 Trường Chinh, Thành phố Hồ Chí Minh, Việt Nam",
        "phone": "84838123000",
        "website": "https://www.cgv.vn",
        "open_time": "8:00",
        "close_time": "23:30",
        "region": "Hồ Chí Minh",
        "long": "106.63616",
        "lat": "10.806966",
        "ticket_price": "75000"
      },
      {
        "name": "CGV Crescent Mall",
        "description": "Located in the 5th floor, Crescent Mall.CGV is a famous name in the business. You will not be disappointed with our quality.",
        "photo_name": "cine05",
        "rating": "4",
        "address": "3 Nguyễn Văn Linh, Tân Phú, Thành phố Hồ Chí Minh, Việt Nam",
        "phone": "84854122222",
        "website": "http://www.nhahathoabinh.com.vn/",
        "open_time": "9:00",
        "close_time": "23:30",
        "region": "Hồ Chí Minh",
        "long": "106.7189451",
        "lat": "10.7290698",
        "ticket_price": "75000"
      },
      {
        "name": "Kinh thành Huế",
        "description": "World Cultural Heritage! Relive the old days of the Nguyen Dynasty. The past still has so much to be explored.",
        "photo_name": "museum03",
        "rating": "5",
        "address": "Thừa Thiên Huế, Việt Nam",
        "phone": "0945313989",
        "website": "https://vi.wikipedia.org/wiki/Kinh_th%C3%A0nh_Hu%E1%BA%BF",
        "open_time": "Open 24h",
        "close_time": "Open 24h",
        "region": "Huế",
        "long": "107.579208",
        "lat": "16.468787",
        "ticket_price": "150000"
      },
      {
        "name": "Lăng Minh Mạng",
        "description": "The tomb of Minh Mang. It was built from 1840 to 1843 by over ten thousand craftsmen and soldiers.",
        "photo_name": "museum04",
        "rating": "5",
        "address": "49 Hương Thọ, tx. Hương Trà, Thừa Thiên Huế, Việt Nam",
        "phone": "0945313989",
        "website": "https://vi.wikipedia.org/wiki/L%C4%83ng_Minh_M%E1%BA%A1ng",
        "open_time": "8:00",
        "close_time": "23:00",
        "region": "Huế",
        "long": "107.5697717",
        "lat": "16.3882436",
        "ticket_price": "0"
      },
      {
        "name": "Bảo tàng Hồ Chí Minh",
        "description": "One of the 14 Ho Chi Minh Museum scattered all over Viet Nam. We have our own unique relics of Ho Chi Minh.",
        "photo_name": "museum05",
        "rating": "2",
        "address": "19 Ngọc Hà, Ba Đình, Hà Nội, Việt Nam",
        "phone": "84438463757",
        "website": "http://www.baotanghochiminh.vn/",
        "open_time": "8:00",
        "close_time": "16:30",
        "region": "Hà Nội",
        "long": "105.8355668",
        "lat": "21.0319773",
        "ticket_price": "2000"
      },
      {
        "name": "Bảo tàng Phụ nữ Việt Nam",
        "description": "Vietnamese Women Museum. We are in the top 25 most attractive museums in Asia. Come to find out why!",
        "photo_name": "museum06",
        "rating": "4",
        "address": "36 Lý Thường Kiệt, Hà Nội, Việt Nam",
        "phone": "84438259129",
        "website": "http://www.womenmuseum.org.vn/",
        "open_time": "8:00",
        "close_time": "17:00",
        "region": "Hà Nội",
        "long": "105.8487877",
        "lat": "21.0227601",
        "ticket_price": "15000"
      },
      {
        "name": "CGV MIPEC",
        "description": "Located in the 5th floor, MIPEC Tower. CGV is a famous name in the business. You will not be disappointed with our quality.",
        "photo_name": "cine06",
        "rating": "4",
        "address": "229 Tây Sơn, làng Khương Thượng, Đống Đa, Hà Nội, Việt Nam",
        "phone": "84462523333",
        "website": "https://www.cgv.vn",
        "open_time": "8:00",
        "close_time": "23:30",
        "region": "Hà Nội",
        "long": "105.8249827",
        "lat": "21.0064586",
        "ticket_price": "55000"
      }
    ]
  }
}